timestamp,date,latitude,longitude
1601408614,"2020-09-29 19:43:34",52.24267,0.018852
1601409037,"2020-09-29 19:50:37",52.242688,0.018806
1601409210,"2020-09-29 19:53:30",52.24263,0.01869
1601409236,"2020-09-29 19:53:56",52.242707,0.018778
1601410360,"2020-09-29 20:12:40",52.242723,0.018824
1601410800,"2020-09-29 20:20:00",52.242766,0.018849
1601410801,"2020-09-29 20:20:01",52.242766,0.018849
1601412804,"2020-09-29 20:53:24",52.242766,0.018849
1601413387,"2020-09-29 21:03:07",52.242766,0.018849
1601414501,"2020-09-29 21:21:41",52.242766,0.018849
1601415160,"2020-09-29 21:32:40",52.242766,0.018849
1601415348,"2020-09-29 21:35:48",52.242766,0.018849
1601415392,"2020-09-29 21:36:32",52.242766,0.018849
1601415909,"2020-09-29 21:45:09",52.242766,0.018849
1601416121,"2020-09-29 21:48:41",52.242766,0.018849
1601416208,"2020-09-29 21:50:08",52.242808,0.018875
1601416209,"2020-09-29 21:50:09",52.242808,0.018875
1601416315,"2020-09-29 21:51:55",52.242808,0.018875
1601416940,"2020-09-29 22:02:20",52.242808,0.018875
1601417401,"2020-09-29 22:10:01",52.242808,0.018875
1601417513,"2020-09-29 22:11:53",52.242808,0.018875
1601417837,"2020-09-29 22:17:17",52.242808,0.018875
1601418007,"2020-09-29 22:20:07",52.242808,0.018875
1601418101,"2020-09-29 22:21:41",52.242808,0.018875
1601418598,"2020-09-29 22:29:58",52.242808,0.018875
1601419164,"2020-09-29 22:39:24",52.242808,0.018875
1601419838,"2020-09-29 22:50:38",52.242808,0.018875
1601420185,"2020-09-29 22:56:25",52.242808,0.018875
1601420186,"2020-09-29 22:56:26",52.242808,0.018875
1601420640,"2020-09-29 23:04:00",52.242808,0.018875
1601420656,"2020-09-29 23:04:16",52.242808,0.018875
1601420657,"2020-09-29 23:04:17",52.242808,0.018875
1601421073,"2020-09-29 23:11:13",52.242808,0.018875
1601421088,"2020-09-29 23:11:28",52.242808,0.018875
1601421160,"2020-09-29 23:12:40",52.242808,0.018875
1601421304,"2020-09-29 23:15:04",52.242808,0.018875
1601421445,"2020-09-29 23:17:25",52.242808,0.018875
1601421697,"2020-09-29 23:21:37",52.242808,0.018875
1601421742,"2020-09-29 23:22:22",52.242808,0.018875
1601422042,"2020-09-29 23:27:22",52.242808,0.018875
1601422043,"2020-09-29 23:27:23",52.242808,0.018875
1601422167,"2020-09-29 23:29:27",52.242808,0.018875
1601422207,"2020-09-29 23:30:07",52.242808,0.018875
1601422325,"2020-09-29 23:32:05",52.242808,0.018875
1601423047,"2020-09-29 23:44:07",52.242808,0.018875
1601423102,"2020-09-29 23:45:02",52.242808,0.018875
1601423802,"2020-09-29 23:56:42",52.242808,0.018875
1601424130,"2020-09-30 00:02:10",52.242808,0.018875
1601424186,"2020-09-30 00:03:06",52.242808,0.018875
1601424187,"2020-09-30 00:03:07",52.242808,0.018875
1601424203,"2020-09-30 00:03:23",52.242808,0.018875
1601424619,"2020-09-30 00:10:19",52.242808,0.018875
1601425131,"2020-09-30 00:18:51",52.242808,0.018875
1601425418,"2020-09-30 00:23:38",52.242808,0.018875
1601425528,"2020-09-30 00:25:28",52.242808,0.018875
1601425691,"2020-09-30 00:28:11",52.242808,0.018875
1601426140,"2020-09-30 00:35:40",52.242808,0.018875
1601426461,"2020-09-30 00:41:01",52.242808,0.018875
1601426553,"2020-09-30 00:42:33",52.242808,0.018875
1601426565,"2020-09-30 00:42:45",52.242808,0.018875
1601426577,"2020-09-30 00:42:57",52.242808,0.018875
1601427341,"2020-09-30 00:55:41",52.242808,0.018875
1601427488,"2020-09-30 00:58:08",52.242808,0.018875
1601427564,"2020-09-30 00:59:24",52.242808,0.018875
1601428425,"2020-09-30 01:13:45",52.242808,0.018875
1601428684,"2020-09-30 01:18:04",52.242808,0.018875
1601428828,"2020-09-30 01:20:28",52.242808,0.018875
1601429119,"2020-09-30 01:25:19",52.242808,0.018875
1601429150,"2020-09-30 01:25:50",52.242808,0.018875
1601429283,"2020-09-30 01:28:03",52.242808,0.018875
1601429959,"2020-09-30 01:39:19",52.242808,0.018875
1601430503,"2020-09-30 01:48:23",52.242808,0.018875
1601430538,"2020-09-30 01:48:58",52.242808,0.018875
1601430638,"2020-09-30 01:50:38",52.242808,0.018875
1601431223,"2020-09-30 02:00:23",52.242808,0.018875
1601431224,"2020-09-30 02:00:24",52.242808,0.018875
1601432143,"2020-09-30 02:15:43",52.242808,0.018875
1601432348,"2020-09-30 02:19:08",52.242808,0.018875
1601432381,"2020-09-30 02:19:41",52.242808,0.018875
1601432807,"2020-09-30 02:26:47",52.242808,0.018875
1601433012,"2020-09-30 02:30:12",52.242808,0.018875
1601433013,"2020-09-30 02:30:13",52.242808,0.018875
1601434219,"2020-09-30 02:50:19",52.242808,0.018875
1601434277,"2020-09-30 02:51:17",52.242808,0.018875
1601434326,"2020-09-30 02:52:06",52.242808,0.018875
1601434345,"2020-09-30 02:52:25",52.242808,0.018875
1601434800,"2020-09-30 03:00:00",52.242808,0.018875
1601435283,"2020-09-30 03:08:03",52.242808,0.018875
1601435299,"2020-09-30 03:08:19",52.242808,0.018875
1601435419,"2020-09-30 03:10:19",52.242808,0.018875
1601435705,"2020-09-30 03:15:05",52.242808,0.018875
1601435733,"2020-09-30 03:15:33",52.242808,0.018875
1601435898,"2020-09-30 03:18:18",52.242808,0.018875
1601436028,"2020-09-30 03:20:28",52.242808,0.018875
1601436330,"2020-09-30 03:25:30",52.242808,0.018875
1601436739,"2020-09-30 03:32:19",52.242808,0.018875
1601436821,"2020-09-30 03:33:41",52.242808,0.018875
1601436880,"2020-09-30 03:34:40",52.242808,0.018875
1601438184,"2020-09-30 03:56:24",52.242808,0.018875
1601438609,"2020-09-30 04:03:29",52.242808,0.018875
1601438803,"2020-09-30 04:06:43",52.242808,0.018875
1601439144,"2020-09-30 04:12:24",52.242808,0.018875
1601439196,"2020-09-30 04:13:16",52.242808,0.018875
1601439197,"2020-09-30 04:13:17",52.242808,0.018875
1601440480,"2020-09-30 04:34:40",52.242808,0.018875
1601441496,"2020-09-30 04:51:36",52.242808,0.018875
1601441639,"2020-09-30 04:53:59",52.242808,0.018875
1601442075,"2020-09-30 05:01:15",52.242808,0.018875
1601442155,"2020-09-30 05:02:35",52.242808,0.018875
1601442725,"2020-09-30 05:12:05",52.242808,0.018875
1601442939,"2020-09-30 05:15:39",52.242808,0.018875
1601443500,"2020-09-30 05:25:00",52.242808,0.018875
1601443718,"2020-09-30 05:28:38",52.242808,0.018875
1601444359,"2020-09-30 05:39:19",52.242808,0.018875
1601444482,"2020-09-30 05:41:22",52.242808,0.018875
1601445384,"2020-09-30 05:56:24",52.242808,0.018875
1601445641,"2020-09-30 06:00:41",52.242808,0.018875
1601445729,"2020-09-30 06:02:09",52.242808,0.018875
1601446396,"2020-09-30 06:13:16",52.242808,0.018875
1601446523,"2020-09-30 06:15:23",52.242808,0.018875
1601447275,"2020-09-30 06:27:55",52.242808,0.018875
1601447313,"2020-09-30 06:28:33",52.242808,0.018875
1601447343,"2020-09-30 06:29:03",52.242808,0.018875
1601447372,"2020-09-30 06:29:32",52.242808,0.018875
1601447379,"2020-09-30 06:29:39",52.242808,0.018875
1601447496,"2020-09-30 06:31:36",52.242808,0.018875
1601447646,"2020-09-30 06:34:06",52.242808,0.018875
1601447676,"2020-09-30 06:34:36",52.242808,0.018875
1601447682,"2020-09-30 06:34:42",52.242808,0.018875
1601447700,"2020-09-30 06:35:00",52.242808,0.018875
1601447749,"2020-09-30 06:35:49",52.242808,0.018875
1601447917,"2020-09-30 06:38:37",52.242808,0.018875
1601448085,"2020-09-30 06:41:25",52.242808,0.018875
1601448469,"2020-09-30 06:47:49",52.242808,0.018875
1601448577,"2020-09-30 06:49:37",52.242808,0.018875
1601448686,"2020-09-30 06:51:26",52.24281,0.018855
1601448705,"2020-09-30 06:51:45",52.242684,0.019083
1601448707,"2020-09-30 06:51:47",52.242736,0.018906
1601448713,"2020-09-30 06:51:53",52.242796,0.018804
1601448718,"2020-09-30 06:51:58",52.242859,0.018613
1601448741,"2020-09-30 06:52:21",52.242843,0.018635
1601448801,"2020-09-30 06:53:21",52.242765,0.018763
1601448803,"2020-09-30 06:53:23",52.242761,0.01877
1601448804,"2020-09-30 06:53:24",52.242761,0.01877
1601448805,"2020-09-30 06:53:25",52.242761,0.01877
1601448806,"2020-09-30 06:53:26",52.242761,0.01877
1601448811,"2020-09-30 06:53:31",52.242761,0.01877
1601448818,"2020-09-30 06:53:38",52.242761,0.01877
1601448842,"2020-09-30 06:54:02",52.242761,0.01877
1601448868,"2020-09-30 06:54:28",52.242761,0.01877
1601448871,"2020-09-30 06:54:31",52.242816,0.018742
1601448896,"2020-09-30 06:54:56",52.242808,0.018749
1601448912,"2020-09-30 06:55:12",52.242808,0.018749
1601448936,"2020-09-30 06:55:36",52.242777,0.018801
1601448948,"2020-09-30 06:55:48",52.242777,0.018801
1601448951,"2020-09-30 06:55:51",52.24272,0.018705
1601448953,"2020-09-30 06:55:53",52.24272,0.018705
1601449028,"2020-09-30 06:57:08",52.242725,0.01879
1601449044,"2020-09-30 06:57:24",52.242763,0.018768
1601449045,"2020-09-30 06:57:25",52.242763,0.018768
1601449050,"2020-09-30 06:57:30",52.242762,0.018769
1601450809,"2020-09-30 07:26:49",52.24272,0.018785
1601450815,"2020-09-30 07:26:55",52.242838,0.018726
1601450817,"2020-09-30 07:26:57",52.242831,0.01866
1601450820,"2020-09-30 07:27:00",52.242683,0.018633
1601450821,"2020-09-30 07:27:01",52.242837,0.018581
1601450822,"2020-09-30 07:27:02",52.242766,0.018751
1601450823,"2020-09-30 07:27:03",52.242766,0.018751
1601450826,"2020-09-30 07:27:06",52.242784,0.018788
1601450827,"2020-09-30 07:27:07",52.242784,0.018788
1601450828,"2020-09-30 07:27:08",52.242784,0.018788
1601450829,"2020-09-30 07:27:09",52.242789,0.018796
1601450963,"2020-09-30 07:29:23",52.242701,0.018659
1601450965,"2020-09-30 07:29:25",52.242574,0.018633
1601450967,"2020-09-30 07:29:27",52.242401,0.018594
1601450969,"2020-09-30 07:29:29",52.242283,0.018573
1601450971,"2020-09-30 07:29:31",52.242179,0.018572
1601450976,"2020-09-30 07:29:36",52.242084,0.01859
1601451023,"2020-09-30 07:30:23",52.242018,0.018487
1601451025,"2020-09-30 07:30:25",52.241904,0.018489
1601451027,"2020-09-30 07:30:27",52.241783,0.018495
1601451029,"2020-09-30 07:30:29",52.241665,0.018494
1601451031,"2020-09-30 07:30:31",52.241542,0.018515
1601451032,"2020-09-30 07:30:32",52.241454,0.01853
1601451034,"2020-09-30 07:30:34",52.241302,0.018523
1601451036,"2020-09-30 07:30:36",52.241166,0.018494
1601451038,"2020-09-30 07:30:38",52.241028,0.018425
1601451040,"2020-09-30 07:30:40",52.240857,0.018335
1601451042,"2020-09-30 07:30:42",52.240697,0.018218
1601451044,"2020-09-30 07:30:44",52.240514,0.018126
1601451046,"2020-09-30 07:30:46",52.240355,0.018076
1601451047,"2020-09-30 07:30:47",52.240251,0.01806
1601451049,"2020-09-30 07:30:49",52.240076,0.01804
1601451051,"2020-09-30 07:30:51",52.239952,0.018034
1601451053,"2020-09-30 07:30:53",52.23988,0.018098
1601451055,"2020-09-30 07:30:55",52.239823,0.01831
1601451057,"2020-09-30 07:30:57",52.239745,0.018592
1601451058,"2020-09-30 07:30:58",52.239683,0.018784
1601451059,"2020-09-30 07:30:59",52.239622,0.018973
1601451060,"2020-09-30 07:31:00",52.239553,0.019137
1601451061,"2020-09-30 07:31:01",52.239487,0.019321
1601451062,"2020-09-30 07:31:02",52.239419,0.01952
1601451063,"2020-09-30 07:31:03",52.239355,0.019726
1601451064,"2020-09-30 07:31:04",52.23929,0.01992
1601451065,"2020-09-30 07:31:05",52.23923,0.02013
1601451066,"2020-09-30 07:31:06",52.239183,0.020331
1601451067,"2020-09-30 07:31:07",52.239118,0.020533
1601451068,"2020-09-30 07:31:08",52.23907,0.020736
1601451069,"2020-09-30 07:31:09",52.239032,0.020943
1601451070,"2020-09-30 07:31:10",52.238995,0.021142
1601451071,"2020-09-30 07:31:11",52.238969,0.021358
1601451073,"2020-09-30 07:31:13",52.23896,0.02174
1601451074,"2020-09-30 07:31:14",52.238976,0.021947
1601451075,"2020-09-30 07:31:15",52.238972,0.022141
1601451076,"2020-09-30 07:31:16",52.238997,0.022347
1601451077,"2020-09-30 07:31:17",52.239014,0.022587
1601451078,"2020-09-30 07:31:18",52.239048,0.022789
1601451079,"2020-09-30 07:31:19",52.239088,0.022995
1601451081,"2020-09-30 07:31:21",52.239246,0.023371
1601451082,"2020-09-30 07:31:22",52.239316,0.023552
1601451083,"2020-09-30 07:31:23",52.239374,0.023737
1601451084,"2020-09-30 07:31:24",52.23943,0.023929
1601451085,"2020-09-30 07:31:25",52.239487,0.024106
1601451086,"2020-09-30 07:31:26",52.239539,0.02427
1601451087,"2020-09-30 07:31:27",52.239601,0.024439
1601451088,"2020-09-30 07:31:28",52.239686,0.02459
1601451089,"2020-09-30 07:31:29",52.239758,0.024742
1601451091,"2020-09-30 07:31:31",52.23984,0.024994
1601451093,"2020-09-30 07:31:33",52.239896,0.025178
1601451095,"2020-09-30 07:31:35",52.240018,0.025349
1601451096,"2020-09-30 07:31:36",52.240081,0.025456
1601451097,"2020-09-30 07:31:37",52.240159,0.02557
1601451098,"2020-09-30 07:31:38",52.240249,0.025691
1601451099,"2020-09-30 07:31:39",52.240333,0.025816
1601451100,"2020-09-30 07:31:40",52.240415,0.02593
1601451101,"2020-09-30 07:31:41",52.240503,0.026047
1601451102,"2020-09-30 07:31:42",52.240599,0.026186
1601451103,"2020-09-30 07:31:43",52.240691,0.026323
1601451104,"2020-09-30 07:31:44",52.240779,0.026452
1601451105,"2020-09-30 07:31:45",52.24087,0.026588
1601451106,"2020-09-30 07:31:46",52.240955,0.026718
1601451107,"2020-09-30 07:31:47",52.241043,0.026853
1601451108,"2020-09-30 07:31:48",52.241135,0.026982
1601451109,"2020-09-30 07:31:49",52.241224,0.02712
1601451110,"2020-09-30 07:31:50",52.241309,0.027256
1601451111,"2020-09-30 07:31:51",52.241393,0.027395
1601451112,"2020-09-30 07:31:52",52.241478,0.027532
1601451113,"2020-09-30 07:31:53",52.241562,0.027677
1601451114,"2020-09-30 07:31:54",52.241644,0.027819
1601451115,"2020-09-30 07:31:55",52.241723,0.027969
1601451116,"2020-09-30 07:31:56",52.2418,0.028109
1601451117,"2020-09-30 07:31:57",52.241878,0.028245
1601451118,"2020-09-30 07:31:58",52.241953,0.028389
1601451119,"2020-09-30 07:31:59",52.242026,0.028528
1601451120,"2020-09-30 07:32:00",52.242105,0.028679
1601451121,"2020-09-30 07:32:01",52.242182,0.028831
1601451122,"2020-09-30 07:32:02",52.242257,0.028984
1601451123,"2020-09-30 07:32:03",52.24233,0.029138
1601451124,"2020-09-30 07:32:04",52.242395,0.029299
1601451125,"2020-09-30 07:32:05",52.242462,0.029465
1601451126,"2020-09-30 07:32:06",52.242525,0.029635
1601451127,"2020-09-30 07:32:07",52.242592,0.0298
1601451128,"2020-09-30 07:32:08",52.242656,0.029966
1601451129,"2020-09-30 07:32:09",52.242717,0.030128
1601451130,"2020-09-30 07:32:10",52.242782,0.030296
1601451131,"2020-09-30 07:32:11",52.242847,0.030462
1601451132,"2020-09-30 07:32:12",52.24291,0.030628
1601451133,"2020-09-30 07:32:13",52.242977,0.030778
1601451134,"2020-09-30 07:32:14",52.243046,0.030923
1601451135,"2020-09-30 07:32:15",52.243116,0.031089
1601451136,"2020-09-30 07:32:16",52.243181,0.031241
1601451137,"2020-09-30 07:32:17",52.243247,0.031392
1601451138,"2020-09-30 07:32:18",52.243325,0.031553
1601451139,"2020-09-30 07:32:19",52.243403,0.031704
1601451140,"2020-09-30 07:32:20",52.243479,0.031852
1601451141,"2020-09-30 07:32:21",52.243557,0.032004
1601451142,"2020-09-30 07:32:22",52.243636,0.032161
1601451143,"2020-09-30 07:32:23",52.24372,0.032326
1601451144,"2020-09-30 07:32:24",52.24381,0.032501
1601451145,"2020-09-30 07:32:25",52.243903,0.032682
1601451146,"2020-09-30 07:32:26",52.243995,0.032866
1601451147,"2020-09-30 07:32:27",52.244071,0.033065
1601451148,"2020-09-30 07:32:28",52.244173,0.033273
1601451149,"2020-09-30 07:32:29",52.244277,0.033487
1601451150,"2020-09-30 07:32:30",52.244391,0.033709
1601451151,"2020-09-30 07:32:31",52.244506,0.033939
1601451152,"2020-09-30 07:32:32",52.244626,0.034169
1601451153,"2020-09-30 07:32:33",52.244743,0.034396
1601451154,"2020-09-30 07:32:34",52.244864,0.034614
1601451155,"2020-09-30 07:32:35",52.244995,0.034839
1601451156,"2020-09-30 07:32:36",52.245128,0.035045
1601451157,"2020-09-30 07:32:37",52.245245,0.035271
1601451158,"2020-09-30 07:32:38",52.245347,0.035509
1601451159,"2020-09-30 07:32:39",52.245394,0.035776
1601451160,"2020-09-30 07:32:40",52.245453,0.036018
1601451161,"2020-09-30 07:32:41",52.245486,0.036256
1601451162,"2020-09-30 07:32:42",52.245531,0.036524
1601451163,"2020-09-30 07:32:43",52.245547,0.036844
1601451164,"2020-09-30 07:32:44",52.245576,0.037165
1601451165,"2020-09-30 07:32:45",52.24559,0.037466
1601451166,"2020-09-30 07:32:46",52.245601,0.037766
1601451167,"2020-09-30 07:32:47",52.245632,0.037987
1601451168,"2020-09-30 07:32:48",52.245634,0.038268
1601451169,"2020-09-30 07:32:49",52.24569,0.038479
1601451170,"2020-09-30 07:32:50",52.245726,0.038729
1601451171,"2020-09-30 07:32:51",52.245756,0.038913
1601451172,"2020-09-30 07:32:52",52.245822,0.039049
1601451174,"2020-09-30 07:32:54",52.24594,0.039326
1601451176,"2020-09-30 07:32:56",52.245957,0.039653
1601451177,"2020-09-30 07:32:57",52.245962,0.039814
1601451178,"2020-09-30 07:32:58",52.245973,0.040003
1601451179,"2020-09-30 07:32:59",52.245978,0.04022
1601451180,"2020-09-30 07:33:00",52.245987,0.040446
1601451181,"2020-09-30 07:33:01",52.246005,0.040698
1601451182,"2020-09-30 07:33:02",52.246048,0.040948
1601451183,"2020-09-30 07:33:03",52.246086,0.041211
1601451184,"2020-09-30 07:33:04",52.246129,0.041468
1601451185,"2020-09-30 07:33:05",52.246162,0.041741
1601451186,"2020-09-30 07:33:06",52.246217,0.041979
1601451187,"2020-09-30 07:33:07",52.246273,0.042243
1601451188,"2020-09-30 07:33:08",52.246342,0.042502
1601451189,"2020-09-30 07:33:09",52.246433,0.042763
1601451190,"2020-09-30 07:33:10",52.24651,0.043042
1601451191,"2020-09-30 07:33:11",52.246602,0.043275
1601451192,"2020-09-30 07:33:12",52.246706,0.043515
1601451193,"2020-09-30 07:33:13",52.246846,0.043717
1601451194,"2020-09-30 07:33:14",52.246985,0.043885
1601451195,"2020-09-30 07:33:15",52.247128,0.044066
1601451196,"2020-09-30 07:33:16",52.247253,0.044214
1601451197,"2020-09-30 07:33:17",52.247366,0.044353
1601451198,"2020-09-30 07:33:18",52.247479,0.04449
1601451199,"2020-09-30 07:33:19",52.247582,0.044647
1601451200,"2020-09-30 07:33:20",52.247691,0.044788
1601451201,"2020-09-30 07:33:21",52.247795,0.044931
1601451202,"2020-09-30 07:33:22",52.247915,0.045076
1601451203,"2020-09-30 07:33:23",52.24803,0.045182
1601451204,"2020-09-30 07:33:24",52.248159,0.045283
1601451205,"2020-09-30 07:33:25",52.248299,0.045334
1601451206,"2020-09-30 07:33:26",52.248437,0.045376
1601451207,"2020-09-30 07:33:27",52.248584,0.045391
1601451208,"2020-09-30 07:33:28",52.248728,0.045389
1601451209,"2020-09-30 07:33:29",52.248831,0.045339
1601451210,"2020-09-30 07:33:30",52.248942,0.045282
1601451211,"2020-09-30 07:33:31",52.249027,0.045242
1601451212,"2020-09-30 07:33:32",52.249082,0.045103
1601451213,"2020-09-30 07:33:33",52.249128,0.044974
1601451214,"2020-09-30 07:33:34",52.249193,0.044822
1601451215,"2020-09-30 07:33:35",52.249252,0.044681
1601451216,"2020-09-30 07:33:36",52.249302,0.044534
1601451217,"2020-09-30 07:33:37",52.249349,0.044366
1601451218,"2020-09-30 07:33:38",52.249394,0.044182
1601451219,"2020-09-30 07:33:39",52.249418,0.043982
1601451220,"2020-09-30 07:33:40",52.249449,0.043779
1601451221,"2020-09-30 07:33:41",52.249487,0.043575
1601451222,"2020-09-30 07:33:42",52.249524,0.043371
1601451223,"2020-09-30 07:33:43",52.249561,0.043166
1601451224,"2020-09-30 07:33:44",52.2496,0.042958
1601451225,"2020-09-30 07:33:45",52.249639,0.042745
1601451226,"2020-09-30 07:33:46",52.249679,0.042532
1601451227,"2020-09-30 07:33:47",52.24972,0.042307
1601451228,"2020-09-30 07:33:48",52.249762,0.042098
1601451229,"2020-09-30 07:33:49",52.249806,0.041872
1601451230,"2020-09-30 07:33:50",52.249855,0.041642
1601451231,"2020-09-30 07:33:51",52.249897,0.041402
1601451232,"2020-09-30 07:33:52",52.249954,0.04117
1601451233,"2020-09-30 07:33:53",52.250014,0.040949
1601451234,"2020-09-30 07:33:54",52.250091,0.040715
1601451235,"2020-09-30 07:33:55",52.25016,0.040467
1601451236,"2020-09-30 07:33:56",52.250237,0.040221
1601451237,"2020-09-30 07:33:57",52.250326,0.039983
1601451238,"2020-09-30 07:33:58",52.250403,0.039732
1601451239,"2020-09-30 07:33:59",52.250481,0.03947
1601451240,"2020-09-30 07:34:00",52.250575,0.039224
1601451241,"2020-09-30 07:34:01",52.250674,0.038982
1601451242,"2020-09-30 07:34:02",52.250772,0.038742
1601451243,"2020-09-30 07:34:03",52.250885,0.038512
1601451244,"2020-09-30 07:34:04",52.250974,0.038276
1601451245,"2020-09-30 07:34:05",52.251078,0.038032
1601451246,"2020-09-30 07:34:06",52.251193,0.037794
1601451247,"2020-09-30 07:34:07",52.251308,0.037556
1601451248,"2020-09-30 07:34:08",52.251434,0.037327
1601451249,"2020-09-30 07:34:09",52.251557,0.037072
1601451250,"2020-09-30 07:34:10",52.25167,0.036835
1601451251,"2020-09-30 07:34:11",52.251778,0.036595
1601451252,"2020-09-30 07:34:12",52.251892,0.036353
1601451253,"2020-09-30 07:34:13",52.252001,0.036133
1601451254,"2020-09-30 07:34:14",52.252121,0.035915
1601451255,"2020-09-30 07:34:15",52.252236,0.035703
1601451256,"2020-09-30 07:34:16",52.252353,0.035487
1601451257,"2020-09-30 07:34:17",52.252472,0.03528
1601451258,"2020-09-30 07:34:18",52.252593,0.035077
1601451259,"2020-09-30 07:34:19",52.252706,0.034871
1601451260,"2020-09-30 07:34:20",52.252827,0.034666
1601451261,"2020-09-30 07:34:21",52.252945,0.03447
1601451262,"2020-09-30 07:34:22",52.253066,0.034271
1601451263,"2020-09-30 07:34:23",52.253191,0.034072
1601451264,"2020-09-30 07:34:24",52.253313,0.033879
1601451265,"2020-09-30 07:34:25",52.253425,0.033678
1601451266,"2020-09-30 07:34:26",52.253539,0.033476
1601451267,"2020-09-30 07:34:27",52.253648,0.033262
1601451268,"2020-09-30 07:34:28",52.253771,0.033034
1601451269,"2020-09-30 07:34:29",52.25388,0.03282
1601451270,"2020-09-30 07:34:30",52.253988,0.03261
1601451271,"2020-09-30 07:34:31",52.254106,0.032401
1601451272,"2020-09-30 07:34:32",52.254224,0.032195
1601451273,"2020-09-30 07:34:33",52.254329,0.031983
1601451274,"2020-09-30 07:34:34",52.254449,0.031764
1601451275,"2020-09-30 07:34:35",52.254562,0.031554
1601451276,"2020-09-30 07:34:36",52.254682,0.031348
1601451277,"2020-09-30 07:34:37",52.254803,0.031137
1601451278,"2020-09-30 07:34:38",52.254918,0.030927
1601451279,"2020-09-30 07:34:39",52.255052,0.030702
1601451280,"2020-09-30 07:34:40",52.25517,0.030487
1601451281,"2020-09-30 07:34:41",52.25529,0.030273
1601451282,"2020-09-30 07:34:42",52.25543,0.030056
1601451283,"2020-09-30 07:34:43",52.255562,0.029836
1601451284,"2020-09-30 07:34:44",52.25569,0.02963
1601451285,"2020-09-30 07:34:45",52.255811,0.029435
1601451286,"2020-09-30 07:34:46",52.255917,0.029245
1601451287,"2020-09-30 07:34:47",52.256027,0.029074
1601451288,"2020-09-30 07:34:48",52.256141,0.028904
1601451289,"2020-09-30 07:34:49",52.256254,0.028727
1601451290,"2020-09-30 07:34:50",52.256351,0.028577
1601451291,"2020-09-30 07:34:51",52.256466,0.028396
1601451292,"2020-09-30 07:34:52",52.256579,0.02823
1601451293,"2020-09-30 07:34:53",52.256682,0.028079
1601451294,"2020-09-30 07:34:54",52.25678,0.027955
1601451295,"2020-09-30 07:34:55",52.256876,0.02781
1601451296,"2020-09-30 07:34:56",52.256986,0.02767
1601451297,"2020-09-30 07:34:57",52.257089,0.027523
1601451298,"2020-09-30 07:34:58",52.257168,0.027398
1601451299,"2020-09-30 07:34:59",52.25725,0.027292
1601451301,"2020-09-30 07:35:01",52.257383,0.0271
1601451303,"2020-09-30 07:35:03",52.257505,0.026907
1601451307,"2020-09-30 07:35:07",52.257578,0.026793
1601451320,"2020-09-30 07:35:20",52.257659,0.026656
1601451322,"2020-09-30 07:35:22",52.257738,0.026531
1601451324,"2020-09-30 07:35:24",52.257818,0.026388
1601451326,"2020-09-30 07:35:26",52.257919,0.026299
1601451328,"2020-09-30 07:35:28",52.258078,0.026326
1601451329,"2020-09-30 07:35:29",52.258139,0.02642
1601451331,"2020-09-30 07:35:31",52.258256,0.026643
1601451333,"2020-09-30 07:35:33",52.258404,0.02688
1601451334,"2020-09-30 07:35:34",52.258511,0.026951
1601451335,"2020-09-30 07:35:35",52.258611,0.026996
1601451336,"2020-09-30 07:35:36",52.258727,0.027015
1601451337,"2020-09-30 07:35:37",52.258823,0.027004
1601451338,"2020-09-30 07:35:38",52.25892,0.026962
1601451339,"2020-09-30 07:35:39",52.259017,0.026889
1601451340,"2020-09-30 07:35:40",52.25909,0.026815
1601451341,"2020-09-30 07:35:41",52.259157,0.02672
1601451343,"2020-09-30 07:35:43",52.259268,0.026526
1601451345,"2020-09-30 07:35:45",52.259371,0.026388
1601451353,"2020-09-30 07:35:53",52.259461,0.0262
1601451357,"2020-09-30 07:35:57",52.259705,0.026177
1601451359,"2020-09-30 07:35:59",52.259881,0.026334
1601451360,"2020-09-30 07:36:00",52.259982,0.026434
1601451361,"2020-09-30 07:36:01",52.260088,0.026554
1601451362,"2020-09-30 07:36:02",52.260209,0.026672
1601451363,"2020-09-30 07:36:03",52.260339,0.026777
1601451364,"2020-09-30 07:36:04",52.26048,0.026909
1601451365,"2020-09-30 07:36:05",52.260628,0.027051
1601451366,"2020-09-30 07:36:06",52.260782,0.027194
1601451367,"2020-09-30 07:36:07",52.260933,0.027343
1601451368,"2020-09-30 07:36:08",52.261083,0.027493
1601451369,"2020-09-30 07:36:09",52.26122,0.027643
1601451370,"2020-09-30 07:36:10",52.261368,0.02779
1601451371,"2020-09-30 07:36:11",52.261516,0.027933
1601451372,"2020-09-30 07:36:12",52.261658,0.028073
1601451373,"2020-09-30 07:36:13",52.261802,0.028206
1601451374,"2020-09-30 07:36:14",52.261954,0.028355
1601451375,"2020-09-30 07:36:15",52.262103,0.028496
1601451376,"2020-09-30 07:36:16",52.262252,0.028631
1601451377,"2020-09-30 07:36:17",52.262409,0.028779
1601451378,"2020-09-30 07:36:18",52.262565,0.02891
1601451379,"2020-09-30 07:36:19",52.262725,0.029038
1601451380,"2020-09-30 07:36:20",52.262891,0.029179
1601451381,"2020-09-30 07:36:21",52.263045,0.02932
1601451382,"2020-09-30 07:36:22",52.26321,0.029451
1601451383,"2020-09-30 07:36:23",52.26338,0.029588
1601451384,"2020-09-30 07:36:24",52.263544,0.029722
1601451385,"2020-09-30 07:36:25",52.263706,0.029867
1601451386,"2020-09-30 07:36:26",52.263874,0.029998
1601451387,"2020-09-30 07:36:27",52.264048,0.030131
1601451388,"2020-09-30 07:36:28",52.264215,0.030271
1601451389,"2020-09-30 07:36:29",52.264387,0.030406
1601451390,"2020-09-30 07:36:30",52.264566,0.030536
1601451391,"2020-09-30 07:36:31",52.264743,0.03067
1601451392,"2020-09-30 07:36:32",52.264919,0.030786
1601451393,"2020-09-30 07:36:33",52.265084,0.030906
1601451394,"2020-09-30 07:36:34",52.265285,0.030998
1601451395,"2020-09-30 07:36:35",52.265481,0.031103
1601451396,"2020-09-30 07:36:36",52.265664,0.03122
1601451397,"2020-09-30 07:36:37",52.265861,0.031318
1601451398,"2020-09-30 07:36:38",52.266053,0.031434
1601451399,"2020-09-30 07:36:39",52.26625,0.03154
1601451400,"2020-09-30 07:36:40",52.26643,0.031663
1601451401,"2020-09-30 07:36:41",52.266626,0.031776
1601451402,"2020-09-30 07:36:42",52.266815,0.0319
1601451403,"2020-09-30 07:36:43",52.266999,0.032044
1601451404,"2020-09-30 07:36:44",52.267175,0.032188
1601451405,"2020-09-30 07:36:45",52.267351,0.032339
1601451406,"2020-09-30 07:36:46",52.267536,0.032496
1601451407,"2020-09-30 07:36:47",52.267725,0.032639
1601451408,"2020-09-30 07:36:48",52.267916,0.032791
1601451409,"2020-09-30 07:36:49",52.268111,0.032931
1601451410,"2020-09-30 07:36:50",52.268281,0.033085
1601451411,"2020-09-30 07:36:51",52.268469,0.033241
1601451412,"2020-09-30 07:36:52",52.268655,0.03338
1601451413,"2020-09-30 07:36:53",52.268837,0.033524
1601451414,"2020-09-30 07:36:54",52.269025,0.033673
1601451415,"2020-09-30 07:36:55",52.269208,0.033837
1601451416,"2020-09-30 07:36:56",52.269395,0.033976
1601451417,"2020-09-30 07:36:57",52.269585,0.034123
1601451418,"2020-09-30 07:36:58",52.269774,0.034266
1601451419,"2020-09-30 07:36:59",52.269946,0.034416
1601451420,"2020-09-30 07:37:00",52.270116,0.034559
1601451421,"2020-09-30 07:37:01",52.270308,0.0347
1601451422,"2020-09-30 07:37:02",52.270496,0.034843
1601451423,"2020-09-30 07:37:03",52.270672,0.035008
1601451424,"2020-09-30 07:37:04",52.270819,0.035169
1601451425,"2020-09-30 07:37:05",52.270992,0.035308
1601451426,"2020-09-30 07:37:06",52.271154,0.035424
1601451427,"2020-09-30 07:37:07",52.271321,0.035576
1601451428,"2020-09-30 07:37:08",52.271489,0.035714
1601451429,"2020-09-30 07:37:09",52.271656,0.035853
1601451430,"2020-09-30 07:37:10",52.271808,0.035983
1601451431,"2020-09-30 07:37:11",52.271953,0.036137
1601451432,"2020-09-30 07:37:12",52.272103,0.036303
1601451433,"2020-09-30 07:37:13",52.272235,0.036479
1601451434,"2020-09-30 07:37:14",52.272382,0.036611
1601451435,"2020-09-30 07:37:15",52.272526,0.036754
1601451436,"2020-09-30 07:37:16",52.272664,0.036879
1601451437,"2020-09-30 07:37:17",52.27279,0.03702
1601451438,"2020-09-30 07:37:18",52.272929,0.037138
1601451439,"2020-09-30 07:37:19",52.273066,0.037249
1601451440,"2020-09-30 07:37:20",52.273192,0.037336
1601451441,"2020-09-30 07:37:21",52.273313,0.037377
1601451442,"2020-09-30 07:37:22",52.273418,0.037374
1601451443,"2020-09-30 07:37:23",52.273525,0.037357
1601451446,"2020-09-30 07:37:26",52.273743,0.037381
1601451448,"2020-09-30 07:37:28",52.273764,0.037591
1601451450,"2020-09-30 07:37:30",52.273687,0.037805
1601451452,"2020-09-30 07:37:32",52.273615,0.038073
1601451454,"2020-09-30 07:37:34",52.273608,0.038356
1601451456,"2020-09-30 07:37:36",52.273793,0.038575
1601451457,"2020-09-30 07:37:37",52.273886,0.038667
1601451458,"2020-09-30 07:37:38",52.273989,0.038764
1601451459,"2020-09-30 07:37:39",52.274093,0.038862
1601451460,"2020-09-30 07:37:40",52.274211,0.038977
1601451461,"2020-09-30 07:37:41",52.274352,0.039103
1601451462,"2020-09-30 07:37:42",52.274506,0.039214
1601451463,"2020-09-30 07:37:43",52.274653,0.039337
1601451464,"2020-09-30 07:37:44",52.274794,0.039436
1601451465,"2020-09-30 07:37:45",52.274952,0.03954
1601451466,"2020-09-30 07:37:46",52.275104,0.039627
1601451467,"2020-09-30 07:37:47",52.27526,0.039701
1601451468,"2020-09-30 07:37:48",52.275421,0.039769
1601451469,"2020-09-30 07:37:49",52.275573,0.039833
1601451470,"2020-09-30 07:37:50",52.275731,0.03989
1601451471,"2020-09-30 07:37:51",52.275897,0.039936
1601451472,"2020-09-30 07:37:52",52.276076,0.039943
1601451473,"2020-09-30 07:37:53",52.276232,0.039957
1601451474,"2020-09-30 07:37:54",52.276418,0.039974
1601451475,"2020-09-30 07:37:55",52.276594,0.040018
1601451476,"2020-09-30 07:37:56",52.27678,0.040023
1601451477,"2020-09-30 07:37:57",52.276954,0.040018
1601451478,"2020-09-30 07:37:58",52.27714,0.040048
1601451479,"2020-09-30 07:37:59",52.277314,0.04008
1601451480,"2020-09-30 07:38:00",52.277499,0.040107
1601451481,"2020-09-30 07:38:01",52.277683,0.040131
1601451482,"2020-09-30 07:38:02",52.277869,0.040148
1601451483,"2020-09-30 07:38:03",52.278054,0.040156
1601451484,"2020-09-30 07:38:04",52.27824,0.040162
1601451485,"2020-09-30 07:38:05",52.278418,0.040165
1601451486,"2020-09-30 07:38:06",52.278593,0.040157
1601451487,"2020-09-30 07:38:07",52.278778,0.040133
1601451488,"2020-09-30 07:38:08",52.278955,0.040111
1601451489,"2020-09-30 07:38:09",52.27912,0.040082
1601451490,"2020-09-30 07:38:10",52.279288,0.040054
1601451491,"2020-09-30 07:38:11",52.279458,0.040011
1601451492,"2020-09-30 07:38:12",52.279622,0.039967
1601451493,"2020-09-30 07:38:13",52.279797,0.039895
1601451494,"2020-09-30 07:38:14",52.279952,0.039843
1601451495,"2020-09-30 07:38:15",52.280091,0.039785
1601451496,"2020-09-30 07:38:16",52.280243,0.039726
1601451497,"2020-09-30 07:38:17",52.280391,0.039659
1601451498,"2020-09-30 07:38:18",52.280558,0.039583
1601451499,"2020-09-30 07:38:19",52.280717,0.039518
1601451500,"2020-09-30 07:38:20",52.280868,0.039483
1601451501,"2020-09-30 07:38:21",52.280989,0.039477
1601451502,"2020-09-30 07:38:22",52.281148,0.039478
1601451503,"2020-09-30 07:38:23",52.281292,0.03953
1601451504,"2020-09-30 07:38:24",52.281427,0.039585
1601451505,"2020-09-30 07:38:25",52.281544,0.039656
1601451506,"2020-09-30 07:38:26",52.281643,0.039732
1601451507,"2020-09-30 07:38:27",52.281737,0.03977
1601451508,"2020-09-30 07:38:28",52.281815,0.039762
1601451511,"2020-09-30 07:38:31",52.282024,0.039793
1601451514,"2020-09-30 07:38:34",52.282081,0.040143
1601451516,"2020-09-30 07:38:36",52.282104,0.040446
1601451517,"2020-09-30 07:38:37",52.28213,0.040604
1601451518,"2020-09-30 07:38:38",52.282161,0.040779
1601451519,"2020-09-30 07:38:39",52.282214,0.040976
1601451520,"2020-09-30 07:38:40",52.282287,0.041179
1601451521,"2020-09-30 07:38:41",52.28233,0.041365
1601451522,"2020-09-30 07:38:42",52.282356,0.041569
1601451523,"2020-09-30 07:38:43",52.28238,0.041766
1601451524,"2020-09-30 07:38:44",52.282406,0.041966
1601451525,"2020-09-30 07:38:45",52.282448,0.042145
1601451526,"2020-09-30 07:38:46",52.282492,0.042314
1601451527,"2020-09-30 07:38:47",52.282537,0.042495
1601451528,"2020-09-30 07:38:48",52.28258,0.042691
1601451529,"2020-09-30 07:38:49",52.282621,0.042847
1601451530,"2020-09-30 07:38:50",52.282666,0.042994
1601451531,"2020-09-30 07:38:51",52.282702,0.043133
1601451532,"2020-09-30 07:38:52",52.282738,0.043282
1601451533,"2020-09-30 07:38:53",52.282773,0.043413
1601451535,"2020-09-30 07:38:55",52.282839,0.043673
1601451537,"2020-09-30 07:38:57",52.282884,0.043896
1601451539,"2020-09-30 07:38:59",52.282912,0.044054
1601451541,"2020-09-30 07:39:01",52.282938,0.044139
1601451544,"2020-09-30 07:39:04",52.283054,0.044222
1601451546,"2020-09-30 07:39:06",52.283128,0.044209
1601451548,"2020-09-30 07:39:08",52.283277,0.044126
1601451550,"2020-09-30 07:39:10",52.28341,0.044076
1601451552,"2020-09-30 07:39:12",52.283556,0.044016
1601451554,"2020-09-30 07:39:14",52.283704,0.044007
1601451556,"2020-09-30 07:39:16",52.28387,0.043983
1601451558,"2020-09-30 07:39:18",52.283978,0.043979
1601451561,"2020-09-30 07:39:21",52.28407,0.043898
1601451568,"2020-09-30 07:39:28",52.284158,0.043778
1601451683,"2020-09-30 07:41:23",52.284099,0.043901
1601451689,"2020-09-30 07:41:29",52.284049,0.043994
1601451690,"2020-09-30 07:41:30",52.284012,0.044029
1601451691,"2020-09-30 07:41:31",52.283972,0.044053
1601451695,"2020-09-30 07:41:35",52.283674,0.044126
1601451696,"2020-09-30 07:41:36",52.283589,0.044129
1601451697,"2020-09-30 07:41:37",52.283515,0.044153
1601451699,"2020-09-30 07:41:39",52.283367,0.044189
1601451701,"2020-09-30 07:41:41",52.28321,0.04423
1601451703,"2020-09-30 07:41:43",52.283092,0.044256
1601451719,"2020-09-30 07:41:59",52.282986,0.044228
1601451721,"2020-09-30 07:42:01",52.28294,0.044052
1601451723,"2020-09-30 07:42:03",52.282906,0.043833
1601451725,"2020-09-30 07:42:05",52.282851,0.043607
1601451726,"2020-09-30 07:42:06",52.282799,0.043477
1601451727,"2020-09-30 07:42:07",52.282751,0.043348
1601451729,"2020-09-30 07:42:09",52.282675,0.043121
1601451731,"2020-09-30 07:42:11",52.282607,0.042905
1601451733,"2020-09-30 07:42:13",52.28254,0.042673
1601451735,"2020-09-30 07:42:15",52.282482,0.04243
1601451736,"2020-09-30 07:42:16",52.282457,0.042299
1601451738,"2020-09-30 07:42:18",52.282404,0.042011
1601451739,"2020-09-30 07:42:19",52.282385,0.041859
1601451741,"2020-09-30 07:42:21",52.282339,0.041557
1601451742,"2020-09-30 07:42:22",52.282308,0.041406
1601451744,"2020-09-30 07:42:24",52.282232,0.041121
1601451745,"2020-09-30 07:42:25",52.282192,0.040956
1601451746,"2020-09-30 07:42:26",52.282144,0.040795
1601451747,"2020-09-30 07:42:27",52.282102,0.040624
1601451748,"2020-09-30 07:42:28",52.282053,0.040473
1601451749,"2020-09-30 07:42:29",52.282019,0.040328
1601451751,"2020-09-30 07:42:31",52.281887,0.04012
1601451754,"2020-09-30 07:42:34",52.2816,0.039771
1601451755,"2020-09-30 07:42:35",52.281499,0.039684
1601451756,"2020-09-30 07:42:36",52.281394,0.039603
1601451757,"2020-09-30 07:42:37",52.281262,0.039562
1601451758,"2020-09-30 07:42:38",52.281145,0.039549
1601451759,"2020-09-30 07:42:39",52.281014,0.039529
1601451760,"2020-09-30 07:42:40",52.28086,0.039538
1601451761,"2020-09-30 07:42:41",52.280708,0.039579
1601451762,"2020-09-30 07:42:42",52.280566,0.039639
1601451763,"2020-09-30 07:42:43",52.28041,0.039702
1601451764,"2020-09-30 07:42:44",52.280248,0.039784
1601451765,"2020-09-30 07:42:45",52.280091,0.039851
1601451766,"2020-09-30 07:42:46",52.279928,0.039911
1601451767,"2020-09-30 07:42:47",52.279759,0.03997
1601451768,"2020-09-30 07:42:48",52.279584,0.040024
1601451769,"2020-09-30 07:42:49",52.279405,0.040069
1601451770,"2020-09-30 07:42:50",52.279222,0.040113
1601451771,"2020-09-30 07:42:51",52.279042,0.040144
1601451772,"2020-09-30 07:42:52",52.278856,0.040178
1601451773,"2020-09-30 07:42:53",52.278673,0.040208
1601451774,"2020-09-30 07:42:54",52.278495,0.040226
1601451775,"2020-09-30 07:42:55",52.278307,0.04025
1601451776,"2020-09-30 07:42:56",52.278116,0.040272
1601451777,"2020-09-30 07:42:57",52.277938,0.040274
1601451778,"2020-09-30 07:42:58",52.27775,0.040267
1601451779,"2020-09-30 07:42:59",52.277569,0.040263
1601451780,"2020-09-30 07:43:00",52.277391,0.04033
1601451781,"2020-09-30 07:43:01",52.277214,0.040297
1601451782,"2020-09-30 07:43:02",52.27704,0.040262
1601451783,"2020-09-30 07:43:03",52.27688,0.040217
1601451784,"2020-09-30 07:43:04",52.276707,0.040186
1601451785,"2020-09-30 07:43:05",52.276537,0.040143
1601451786,"2020-09-30 07:43:06",52.276365,0.040115
1601451787,"2020-09-30 07:43:07",52.276191,0.040098
1601451788,"2020-09-30 07:43:08",52.276024,0.040078
1601451789,"2020-09-30 07:43:09",52.27588,0.040036
1601451790,"2020-09-30 07:43:10",52.275718,0.040006
1601451791,"2020-09-30 07:43:11",52.275584,0.039962
1601451792,"2020-09-30 07:43:12",52.275426,0.039892
1601451793,"2020-09-30 07:43:13",52.275254,0.039824
1601451794,"2020-09-30 07:43:14",52.275112,0.039757
1601451795,"2020-09-30 07:43:15",52.27497,0.039687
1601451796,"2020-09-30 07:43:16",52.274823,0.039604
1601451797,"2020-09-30 07:43:17",52.274684,0.039501
1601451798,"2020-09-30 07:43:18",52.274518,0.03941
1601451799,"2020-09-30 07:43:19",52.274402,0.039302
1601451800,"2020-09-30 07:43:20",52.274264,0.039189
1601451801,"2020-09-30 07:43:21",52.274136,0.039075
1601451802,"2020-09-30 07:43:22",52.274014,0.038957
1601451803,"2020-09-30 07:43:23",52.273898,0.038831
1601451804,"2020-09-30 07:43:24",52.273788,0.038702
1601451805,"2020-09-30 07:43:25",52.273706,0.038561
1601451806,"2020-09-30 07:43:26",52.273639,0.038403
1601451808,"2020-09-30 07:43:28",52.273573,0.038093
1601451809,"2020-09-30 07:43:29",52.273558,0.037944
1601451810,"2020-09-30 07:43:30",52.273525,0.037795
1601451812,"2020-09-30 07:43:32",52.27335,0.03755
1601451813,"2020-09-30 07:43:33",52.273243,0.037437
1601451814,"2020-09-30 07:43:34",52.273122,0.037341
1601451815,"2020-09-30 07:43:35",52.273004,0.037234
1601451816,"2020-09-30 07:43:36",52.272867,0.037119
1601451817,"2020-09-30 07:43:37",52.272731,0.036986
1601451818,"2020-09-30 07:43:38",52.2726,0.036854
1601451819,"2020-09-30 07:43:39",52.272474,0.036718
1601451820,"2020-09-30 07:43:40",52.272343,0.036584
1601451821,"2020-09-30 07:43:41",52.272198,0.036451
1601451822,"2020-09-30 07:43:42",52.272068,0.036312
1601451823,"2020-09-30 07:43:43",52.271934,0.036175
1601451824,"2020-09-30 07:43:44",52.271801,0.036046
1601451825,"2020-09-30 07:43:45",52.271649,0.035914
1601451826,"2020-09-30 07:43:46",52.271505,0.035798
1601451827,"2020-09-30 07:43:47",52.271349,0.035658
1601451828,"2020-09-30 07:43:48",52.271192,0.035531
1601451829,"2020-09-30 07:43:49",52.271039,0.035396
1601451830,"2020-09-30 07:43:50",52.270872,0.035266
1601451831,"2020-09-30 07:43:51",52.270717,0.035139
1601451832,"2020-09-30 07:43:52",52.270554,0.035009
1601451833,"2020-09-30 07:43:53",52.270399,0.03488
1601451834,"2020-09-30 07:43:54",52.27024,0.034757
1601451835,"2020-09-30 07:43:55",52.270084,0.034632
1601451836,"2020-09-30 07:43:56",52.269929,0.03449
1601451837,"2020-09-30 07:43:57",52.269765,0.034358
1601451838,"2020-09-30 07:43:58",52.269612,0.03423
1601451839,"2020-09-30 07:43:59",52.269457,0.034085
1601451840,"2020-09-30 07:44:00",52.269295,0.033944
1601451841,"2020-09-30 07:44:01",52.269132,0.033818
1601451842,"2020-09-30 07:44:02",52.268965,0.03369
1601451843,"2020-09-30 07:44:03",52.268801,0.033553
1601451844,"2020-09-30 07:44:04",52.268641,0.033425
1601451845,"2020-09-30 07:44:05",52.268474,0.033286
1601451846,"2020-09-30 07:44:06",52.268307,0.033154
1601451847,"2020-09-30 07:44:07",52.268145,0.033018
1601451848,"2020-09-30 07:44:08",52.267981,0.032884
1601451849,"2020-09-30 07:44:09",52.267825,0.032756
1601451850,"2020-09-30 07:44:10",52.267672,0.032612
1601451851,"2020-09-30 07:44:11",52.267508,0.032487
1601451852,"2020-09-30 07:44:12",52.267336,0.032358
1601451853,"2020-09-30 07:44:13",52.267158,0.032211
1601451854,"2020-09-30 07:44:14",52.266989,0.032077
1601451855,"2020-09-30 07:44:15",52.266819,0.031945
1601451856,"2020-09-30 07:44:16",52.266653,0.031827
1601451857,"2020-09-30 07:44:17",52.266476,0.031724
1601451858,"2020-09-30 07:44:18",52.266293,0.031621
1601451859,"2020-09-30 07:44:19",52.266105,0.031524
1601451860,"2020-09-30 07:44:20",52.26593,0.031416
1601451861,"2020-09-30 07:44:21",52.265733,0.031303
1601451862,"2020-09-30 07:44:22",52.265556,0.03119
1601451863,"2020-09-30 07:44:23",52.265375,0.031077
1601451864,"2020-09-30 07:44:24",52.265192,0.030964
1601451865,"2020-09-30 07:44:25",52.265008,0.03085
1601451866,"2020-09-30 07:44:26",52.264823,0.03074
1601451867,"2020-09-30 07:44:27",52.264647,0.030625
1601451868,"2020-09-30 07:44:28",52.264469,0.030496
1601451869,"2020-09-30 07:44:29",52.264299,0.030375
1601451870,"2020-09-30 07:44:30",52.264114,0.030252
1601451871,"2020-09-30 07:44:31",52.263956,0.030084
1601451872,"2020-09-30 07:44:32",52.263767,0.029956
1601451873,"2020-09-30 07:44:33",52.263599,0.029806
1601451874,"2020-09-30 07:44:34",52.263448,0.02969
1601451875,"2020-09-30 07:44:35",52.263272,0.029561
1601451876,"2020-09-30 07:44:36",52.263104,0.029421
1601451877,"2020-09-30 07:44:37",52.262924,0.029296
1601451878,"2020-09-30 07:44:38",52.262756,0.029157
1601451879,"2020-09-30 07:44:39",52.26261,0.029009
1601451880,"2020-09-30 07:44:40",52.262449,0.028865
1601451881,"2020-09-30 07:44:41",52.262307,0.028732
1601451882,"2020-09-30 07:44:42",52.262174,0.02859
1601451883,"2020-09-30 07:44:43",52.262048,0.028464
1601451884,"2020-09-30 07:44:44",52.26191,0.028326
1601451885,"2020-09-30 07:44:45",52.261764,0.028201
1601451886,"2020-09-30 07:44:46",52.261644,0.028081
1601451887,"2020-09-30 07:44:47",52.261512,0.027973
1601451888,"2020-09-30 07:44:48",52.261385,0.027868
1601451889,"2020-09-30 07:44:49",52.261257,0.027763
1601451890,"2020-09-30 07:44:50",52.261129,0.027659
1601451891,"2020-09-30 07:44:51",52.261005,0.027563
1601451892,"2020-09-30 07:44:52",52.260874,0.027459
1601451893,"2020-09-30 07:44:53",52.26076,0.027362
1601451894,"2020-09-30 07:44:54",52.260655,0.027273
1601451895,"2020-09-30 07:44:55",52.260546,0.027177
1601451896,"2020-09-30 07:44:56",52.260449,0.027086
1601451897,"2020-09-30 07:44:57",52.260359,0.027003
1601451898,"2020-09-30 07:44:58",52.260261,0.026917
1601451899,"2020-09-30 07:44:59",52.260182,0.026862
1601451900,"2020-09-30 07:45:00",52.260098,0.026787
1601451902,"2020-09-30 07:45:02",52.259955,0.026656
1601451904,"2020-09-30 07:45:04",52.259836,0.026551
1601451907,"2020-09-30 07:45:07",52.259723,0.026457
1601451930,"2020-09-30 07:45:30",52.259638,0.026353
1601451932,"2020-09-30 07:45:32",52.259529,0.026274
1601451934,"2020-09-30 07:45:34",52.25941,0.026163
1601451935,"2020-09-30 07:45:35",52.259325,0.026104
1601451936,"2020-09-30 07:45:36",52.259246,0.026022
1601451937,"2020-09-30 07:45:37",52.259155,0.025939
1601451938,"2020-09-30 07:45:38",52.259057,0.025857
1601451939,"2020-09-30 07:45:39",52.258971,0.025759
1601451940,"2020-09-30 07:45:40",52.258873,0.025686
1601451941,"2020-09-30 07:45:41",52.258776,0.025575
1601451942,"2020-09-30 07:45:42",52.258675,0.02547
1601451943,"2020-09-30 07:45:43",52.258552,0.025338
1601451944,"2020-09-30 07:45:44",52.258468,0.025246
1601451945,"2020-09-30 07:45:45",52.258368,0.025126
1601451946,"2020-09-30 07:45:46",52.258267,0.025023
1601451947,"2020-09-30 07:45:47",52.258173,0.024928
1601451949,"2020-09-30 07:45:49",52.258005,0.024832
1601451951,"2020-09-30 07:45:51",52.257819,0.024833
1601451952,"2020-09-30 07:45:52",52.257707,0.024837
1601451953,"2020-09-30 07:45:53",52.257585,0.024845
1601451954,"2020-09-30 07:45:54",52.257471,0.024815
1601451955,"2020-09-30 07:45:55",52.257358,0.024759
1601451956,"2020-09-30 07:45:56",52.257258,0.02465
1601451957,"2020-09-30 07:45:57",52.257173,0.024554
1601451958,"2020-09-30 07:45:58",52.257087,0.024443
1601451959,"2020-09-30 07:45:59",52.256995,0.024337
1601451960,"2020-09-30 07:46:00",52.256907,0.024217
1601451962,"2020-09-30 07:46:02",52.256787,0.023924
1601451964,"2020-09-30 07:46:04",52.256673,0.023625
1601451965,"2020-09-30 07:46:05",52.256591,0.023505
1601451967,"2020-09-30 07:46:07",52.25639,0.023374
1601451968,"2020-09-30 07:46:08",52.256273,0.023358
1601451969,"2020-09-30 07:46:09",52.256168,0.023362
1601451970,"2020-09-30 07:46:10",52.256051,0.023384
1601451972,"2020-09-30 07:46:12",52.25585,0.023465
1601451974,"2020-09-30 07:46:14",52.255706,0.02359
1601451976,"2020-09-30 07:46:16",52.255646,0.023714
1601451978,"2020-09-30 07:46:18",52.255589,0.023916
1601451980,"2020-09-30 07:46:20",52.255496,0.024093
1601451982,"2020-09-30 07:46:22",52.255346,0.02414
1601451984,"2020-09-30 07:46:24",52.255207,0.02407
1601451986,"2020-09-30 07:46:26",52.255088,0.023878
1601451988,"2020-09-30 07:46:28",52.255026,0.023607
1601451989,"2020-09-30 07:46:29",52.25508,0.023437
1601451990,"2020-09-30 07:46:30",52.255085,0.023272
1601451992,"2020-09-30 07:46:32",52.255058,0.022973
1601451993,"2020-09-30 07:46:33",52.255035,0.022823
1601451994,"2020-09-30 07:46:34",52.255023,0.022657
1601451995,"2020-09-30 07:46:35",52.255016,0.022503
1601451997,"2020-09-30 07:46:37",52.255011,0.022178
1601451999,"2020-09-30 07:46:39",52.255016,0.021864
1601452001,"2020-09-30 07:46:41",52.255073,0.021536
1601452002,"2020-09-30 07:46:42",52.25515,0.021372
1601452003,"2020-09-30 07:46:43",52.255197,0.021209
1601452004,"2020-09-30 07:46:44",52.255248,0.021056
1601452005,"2020-09-30 07:46:45",52.255295,0.020903
1601452006,"2020-09-30 07:46:46",52.255352,0.02074
1601452007,"2020-09-30 07:46:47",52.255394,0.020581
1601452009,"2020-09-30 07:46:49",52.255392,0.020296
1601452011,"2020-09-30 07:46:51",52.255339,0.020042
1601452013,"2020-09-30 07:46:53",52.255245,0.019863
1601452015,"2020-09-30 07:46:55",52.255103,0.019776
1601452017,"2020-09-30 07:46:57",52.254962,0.019754
1601452018,"2020-09-30 07:46:58",52.254898,0.019806
1601452021,"2020-09-30 07:47:01",52.254718,0.020022
1601452023,"2020-09-30 07:47:03",52.254624,0.02021
1601452025,"2020-09-30 07:47:05",52.254527,0.020393
1601452027,"2020-09-30 07:47:07",52.254417,0.020515
1601452030,"2020-09-30 07:47:10",52.254274,0.02061
1601452033,"2020-09-30 07:47:13",52.254192,0.020617
1601452096,"2020-09-30 07:48:16",52.254097,0.020686
1601452661,"2020-09-30 07:57:41",52.253932,0.020766
1601452706,"2020-09-30 07:58:26",52.253969,0.020498
1601452711,"2020-09-30 07:58:31",52.254071,0.020296
1601452717,"2020-09-30 07:58:37",52.25418,0.020279
1601452720,"2020-09-30 07:58:40",52.254381,0.020371
1601452722,"2020-09-30 07:58:42",52.254487,0.020277
1601452723,"2020-09-30 07:58:43",52.254535,0.020203
1601452726,"2020-09-30 07:58:46",52.254642,0.019989
1601452729,"2020-09-30 07:58:49",52.254673,0.019835
1601452737,"2020-09-30 07:58:57",52.254704,0.01974
1601452739,"2020-09-30 07:58:59",52.254773,0.019597
1601452740,"2020-09-30 07:59:00",52.254814,0.01955
1601452742,"2020-09-30 07:59:02",52.254928,0.01957
1601452744,"2020-09-30 07:59:04",52.255038,0.019605
1601452746,"2020-09-30 07:59:06",52.255167,0.019645
1601452748,"2020-09-30 07:59:08",52.255288,0.019715
1601452750,"2020-09-30 07:59:10",52.255407,0.019787
1601452752,"2020-09-30 07:59:12",52.25553,0.019791
1601452755,"2020-09-30 07:59:15",52.25568,0.019984
1601452757,"2020-09-30 07:59:17",52.255613,0.020141
1601452759,"2020-09-30 07:59:19",52.255543,0.02031
1601452760,"2020-09-30 07:59:20",52.255494,0.020447
1601452762,"2020-09-30 07:59:22",52.25541,0.020727
1601452763,"2020-09-30 07:59:23",52.255365,0.020875
1601452765,"2020-09-30 07:59:25",52.255301,0.021092
1601452767,"2020-09-30 07:59:27",52.255248,0.021362
1601452769,"2020-09-30 07:59:29",52.255177,0.021576
1601452771,"2020-09-30 07:59:31",52.255151,0.021722
1601452775,"2020-09-30 07:59:35",52.255123,0.021925
1601452783,"2020-09-30 07:59:43",52.255124,0.022071
1601452788,"2020-09-30 07:59:48",52.255118,0.022206
1601452798,"2020-09-30 07:59:58",52.255093,0.022355
1601452812,"2020-09-30 08:00:12",52.255055,0.022511
1601452814,"2020-09-30 08:00:14",52.255077,0.022682
1601452817,"2020-09-30 08:00:17",52.255127,0.02291
1601452819,"2020-09-30 08:00:19",52.255168,0.023075
1601452821,"2020-09-30 08:00:21",52.255239,0.02324
1601452823,"2020-09-30 08:00:23",52.255358,0.023301
1601452826,"2020-09-30 08:00:26",52.255587,0.023382
1601452827,"2020-09-30 08:00:27",52.255692,0.0234
1601452828,"2020-09-30 08:00:28",52.255779,0.023363
1601452829,"2020-09-30 08:00:29",52.255871,0.023313
1601452830,"2020-09-30 08:00:30",52.255965,0.023263
1601452832,"2020-09-30 08:00:32",52.256148,0.023241
1601452833,"2020-09-30 08:00:33",52.256253,0.023237
1601452834,"2020-09-30 08:00:34",52.256357,0.023234
1601452835,"2020-09-30 08:00:35",52.256452,0.02324
1601452837,"2020-09-30 08:00:37",52.256591,0.023307
1601452839,"2020-09-30 08:00:39",52.256676,0.023314
1601452842,"2020-09-30 08:00:42",52.256821,0.023337
1601452845,"2020-09-30 08:00:45",52.257013,0.023201
1601452847,"2020-09-30 08:00:47",52.257178,0.023113
1601452848,"2020-09-30 08:00:48",52.257271,0.023132
1601452849,"2020-09-30 08:00:49",52.257363,0.023185
1601452851,"2020-09-30 08:00:51",52.257513,0.023387
1601452852,"2020-09-30 08:00:52",52.25758,0.023493
1601452853,"2020-09-30 08:00:53",52.257665,0.02357
1601452854,"2020-09-30 08:00:54",52.257729,0.023683
1601452855,"2020-09-30 08:00:55",52.25779,0.023792
1601452856,"2020-09-30 08:00:56",52.257847,0.023904
1601452858,"2020-09-30 08:00:58",52.257913,0.024199
1601452861,"2020-09-30 08:01:01",52.258051,0.024617
1601452862,"2020-09-30 08:01:02",52.258155,0.024713
1601452863,"2020-09-30 08:01:03",52.258262,0.024832
1601452864,"2020-09-30 08:01:04",52.258354,0.02495
1601452865,"2020-09-30 08:01:05",52.258435,0.025042
1601452866,"2020-09-30 08:01:06",52.258526,0.025159
1601452867,"2020-09-30 08:01:07",52.258631,0.025258
1601452868,"2020-09-30 08:01:08",52.258693,0.025379
1601452869,"2020-09-30 08:01:09",52.258792,0.025492
1601452870,"2020-09-30 08:01:10",52.258883,0.025583
1601452871,"2020-09-30 08:01:11",52.25898,0.02566
1601452873,"2020-09-30 08:01:13",52.259126,0.025782
1601452875,"2020-09-30 08:01:15",52.25922,0.025863
1601452898,"2020-09-30 08:01:38",52.259332,0.025987
1601452900,"2020-09-30 08:01:40",52.259429,0.026112
1601452902,"2020-09-30 08:01:42",52.259431,0.026311
1601452903,"2020-09-30 08:01:43",52.259387,0.026433
1601452905,"2020-09-30 08:01:45",52.259276,0.026672
1601452906,"2020-09-30 08:01:46",52.259203,0.02678
1601452907,"2020-09-30 08:01:47",52.259117,0.026882
1601452908,"2020-09-30 08:01:48",52.259029,0.026957
1601452909,"2020-09-30 08:01:49",52.258939,0.027016
1601452910,"2020-09-30 08:01:50",52.258827,0.02708
1601452912,"2020-09-30 08:01:52",52.258657,0.027077
1601452913,"2020-09-30 08:01:53",52.258568,0.027058
1601452915,"2020-09-30 08:01:55",52.258418,0.026963
1601452918,"2020-09-30 08:01:58",52.258274,0.026791
1601452941,"2020-09-30 08:02:21",52.258165,0.026691
1601452943,"2020-09-30 08:02:23",52.258086,0.026536
1601452946,"2020-09-30 08:02:26",52.257973,0.026388
1601452948,"2020-09-30 08:02:28",52.257853,0.026446
1601452950,"2020-09-30 08:02:30",52.257732,0.026647
1601452951,"2020-09-30 08:02:31",52.257677,0.026765
1601452952,"2020-09-30 08:02:32",52.257615,0.026873
1601452953,"2020-09-30 08:02:33",52.257535,0.027002
1601452954,"2020-09-30 08:02:34",52.257438,0.027166
1601452955,"2020-09-30 08:02:35",52.25734,0.027313
1601452956,"2020-09-30 08:02:36",52.257228,0.027464
1601452957,"2020-09-30 08:02:37",52.257123,0.027609
1601452958,"2020-09-30 08:02:38",52.257004,0.027773
1601452959,"2020-09-30 08:02:39",52.256892,0.027939
1601452960,"2020-09-30 08:02:40",52.25677,0.02811
1601452961,"2020-09-30 08:02:41",52.256648,0.028293
1601452962,"2020-09-30 08:02:42",52.256514,0.028484
1601452963,"2020-09-30 08:02:43",52.256375,0.0287
1601452964,"2020-09-30 08:02:44",52.256235,0.028924
1601452965,"2020-09-30 08:02:45",52.256091,0.029142
1601452966,"2020-09-30 08:02:46",52.25595,0.029364
1601452967,"2020-09-30 08:02:47",52.255824,0.02958
1601452968,"2020-09-30 08:02:48",52.255685,0.0298
1601452969,"2020-09-30 08:02:49",52.255549,0.030023
1601452970,"2020-09-30 08:02:50",52.255412,0.030248
1601452971,"2020-09-30 08:02:51",52.255274,0.030476
1601452972,"2020-09-30 08:02:52",52.25514,0.030697
1601452973,"2020-09-30 08:02:53",52.255007,0.030921
1601452974,"2020-09-30 08:02:54",52.254878,0.031154
1601452975,"2020-09-30 08:02:55",52.254755,0.031376
1601452976,"2020-09-30 08:02:56",52.254627,0.031605
1601452977,"2020-09-30 08:02:57",52.254514,0.031831
1601452978,"2020-09-30 08:02:58",52.254384,0.032061
1601452979,"2020-09-30 08:02:59",52.254261,0.032293
1601452980,"2020-09-30 08:03:00",52.254141,0.032528
1601452981,"2020-09-30 08:03:01",52.25402,0.032761
1601452982,"2020-09-30 08:03:02",52.25394,0.033001
1601452983,"2020-09-30 08:03:03",52.253814,0.033241
1601452984,"2020-09-30 08:03:04",52.25369,0.033474
1601452985,"2020-09-30 08:03:05",52.253508,0.033687
1601452986,"2020-09-30 08:03:06",52.253386,0.033906
1601452987,"2020-09-30 08:03:07",52.253254,0.034129
1601452988,"2020-09-30 08:03:08",52.253119,0.034348
1601452989,"2020-09-30 08:03:09",52.252985,0.034574
1601452990,"2020-09-30 08:03:10",52.252856,0.03478
1601452991,"2020-09-30 08:03:11",52.25273,0.035008
1601452992,"2020-09-30 08:03:12",52.252602,0.035237
1601452993,"2020-09-30 08:03:13",52.252514,0.03551
1601452994,"2020-09-30 08:03:14",52.252381,0.035749
1601452995,"2020-09-30 08:03:15",52.252237,0.03598
1601452996,"2020-09-30 08:03:16",52.252109,0.036212
1601452997,"2020-09-30 08:03:17",52.251982,0.03645
1601452998,"2020-09-30 08:03:18",52.251808,0.036657
1601452999,"2020-09-30 08:03:19",52.251672,0.036897
1601453000,"2020-09-30 08:03:20",52.251544,0.03714
1601453001,"2020-09-30 08:03:21",52.251416,0.037382
1601453002,"2020-09-30 08:03:22",52.251302,0.037623
1601453003,"2020-09-30 08:03:23",52.25118,0.037871
1601453004,"2020-09-30 08:03:24",52.251081,0.038135
1601453005,"2020-09-30 08:03:25",52.250971,0.038385
1601453006,"2020-09-30 08:03:26",52.250857,0.03864
1601453007,"2020-09-30 08:03:27",52.250742,0.0389
1601453008,"2020-09-30 08:03:28",52.250641,0.039167
1601453009,"2020-09-30 08:03:29",52.250534,0.039447
1601453010,"2020-09-30 08:03:30",52.250431,0.039733
1601453011,"2020-09-30 08:03:31",52.250351,0.040008
1601453012,"2020-09-30 08:03:32",52.250263,0.040289
1601453013,"2020-09-30 08:03:33",52.250178,0.040592
1601453014,"2020-09-30 08:03:34",52.250112,0.040831
1601453015,"2020-09-30 08:03:35",52.25003,0.04113
1601453016,"2020-09-30 08:03:36",52.249966,0.041418
1601453017,"2020-09-30 08:03:37",52.249902,0.041703
1601453018,"2020-09-30 08:03:38",52.249844,0.04199
1601453019,"2020-09-30 08:03:39",52.249793,0.042257
1601453020,"2020-09-30 08:03:40",52.249742,0.042532
1601453021,"2020-09-30 08:03:41",52.249695,0.042781
1601453022,"2020-09-30 08:03:42",52.249638,0.043029
1601453023,"2020-09-30 08:03:43",52.249587,0.043276
1601453024,"2020-09-30 08:03:44",52.249549,0.043516
1601453025,"2020-09-30 08:03:45",52.249496,0.043747
1601453026,"2020-09-30 08:03:46",52.24945,0.043957
1601453027,"2020-09-30 08:03:47",52.249411,0.044225
1601453028,"2020-09-30 08:03:48",52.249407,0.044392
1601453029,"2020-09-30 08:03:49",52.249388,0.044539
1601453030,"2020-09-30 08:03:50",52.249378,0.044694
1601453032,"2020-09-30 08:03:52",52.249421,0.04493
1601453034,"2020-09-30 08:03:54",52.249452,0.045164
1601453036,"2020-09-30 08:03:56",52.249396,0.045353
1601453037,"2020-09-30 08:03:57",52.24934,0.045369
1601453040,"2020-09-30 08:04:00",52.249062,0.045342
1601453041,"2020-09-30 08:04:01",52.24896,0.045362
1601453043,"2020-09-30 08:04:03",52.248715,0.045466
1601453044,"2020-09-30 08:04:04",52.248578,0.045486
1601453045,"2020-09-30 08:04:05",52.24845,0.045474
1601453046,"2020-09-30 08:04:06",52.248327,0.045444
1601453047,"2020-09-30 08:04:07",52.248193,0.045381
1601453048,"2020-09-30 08:04:08",52.248068,0.04529
1601453049,"2020-09-30 08:04:09",52.247943,0.045182
1601453050,"2020-09-30 08:04:10",52.247823,0.045049
1601453051,"2020-09-30 08:04:11",52.24772,0.044911
1601453052,"2020-09-30 08:04:12",52.247619,0.044766
1601453053,"2020-09-30 08:04:13",52.247513,0.044623
1601453054,"2020-09-30 08:04:14",52.247406,0.044491
1601453055,"2020-09-30 08:04:15",52.2473,0.044351
1601453056,"2020-09-30 08:04:16",52.247198,0.044217
1601453057,"2020-09-30 08:04:17",52.247101,0.044086
1601453058,"2020-09-30 08:04:18",52.247005,0.043945
1601453059,"2020-09-30 08:04:19",52.246912,0.043809
1601453060,"2020-09-30 08:04:20",52.246818,0.043665
1601453061,"2020-09-30 08:04:21",52.246728,0.043512
1601453062,"2020-09-30 08:04:22",52.246644,0.043358
1601453063,"2020-09-30 08:04:23",52.246568,0.043186
1601453064,"2020-09-30 08:04:24",52.246492,0.043008
1601453065,"2020-09-30 08:04:25",52.246424,0.042817
1601453066,"2020-09-30 08:04:26",52.246375,0.042598
1601453067,"2020-09-30 08:04:27",52.246317,0.042401
1601453068,"2020-09-30 08:04:28",52.246273,0.042201
1601453069,"2020-09-30 08:04:29",52.246236,0.041984
1601453070,"2020-09-30 08:04:30",52.246195,0.041772
1601453071,"2020-09-30 08:04:31",52.246154,0.041519
1601453072,"2020-09-30 08:04:32",52.246123,0.041316
1601453073,"2020-09-30 08:04:33",52.246094,0.04112
1601453074,"2020-09-30 08:04:34",52.246072,0.040954
1601453076,"2020-09-30 08:04:36",52.246043,0.040655
1601453077,"2020-09-30 08:04:37",52.246032,0.04047
1601453078,"2020-09-30 08:04:38",52.246022,0.040308
1601453079,"2020-09-30 08:04:39",52.245997,0.040143
1601453080,"2020-09-30 08:04:40",52.24597,0.039984
1601453081,"2020-09-30 08:04:41",52.245927,0.039931
1601453082,"2020-09-30 08:04:42",52.245869,0.039807
1601453084,"2020-09-30 08:04:44",52.24576,0.03962
1601453086,"2020-09-30 08:04:46",52.245732,0.03932
1601453089,"2020-09-30 08:04:49",52.245734,0.038778
1601453090,"2020-09-30 08:04:50",52.24571,0.038571
1601453091,"2020-09-30 08:04:51",52.245685,0.038331
1601453092,"2020-09-30 08:04:52",52.245657,0.038098
1601453093,"2020-09-30 08:04:53",52.245627,0.03786
1601453094,"2020-09-30 08:04:54",52.245591,0.0376
1601453095,"2020-09-30 08:04:55",52.245561,0.037334
1601453096,"2020-09-30 08:04:56",52.245522,0.037076
1601453097,"2020-09-30 08:04:57",52.245489,0.036817
1601453098,"2020-09-30 08:04:58",52.245457,0.036564
1601453099,"2020-09-30 08:04:59",52.245432,0.036294
1601453100,"2020-09-30 08:05:00",52.245399,0.036038
1601453101,"2020-09-30 08:05:01",52.245346,0.035801
1601453102,"2020-09-30 08:05:02",52.245289,0.035575
1601453103,"2020-09-30 08:05:03",52.245218,0.035386
1601453104,"2020-09-30 08:05:04",52.245125,0.035166
1601453105,"2020-09-30 08:05:05",52.245027,0.034981
1601453106,"2020-09-30 08:05:06",52.24492,0.034799
1601453107,"2020-09-30 08:05:07",52.244813,0.034607
1601453108,"2020-09-30 08:05:08",52.244717,0.034427
1601453109,"2020-09-30 08:05:09",52.244617,0.034284
1601453110,"2020-09-30 08:05:10",52.244529,0.034114
1601453111,"2020-09-30 08:05:11",52.244441,0.03395
1601453112,"2020-09-30 08:05:12",52.244364,0.033776
1601453113,"2020-09-30 08:05:13",52.244286,0.033612
1601453114,"2020-09-30 08:05:14",52.244204,0.033451
1601453115,"2020-09-30 08:05:15",52.244125,0.033298
1601453116,"2020-09-30 08:05:16",52.244046,0.033143
1601453117,"2020-09-30 08:05:17",52.243976,0.032984
1601453118,"2020-09-30 08:05:18",52.243904,0.032845
1601453119,"2020-09-30 08:05:19",52.243831,0.032702
1601453120,"2020-09-30 08:05:20",52.243769,0.032566
1601453121,"2020-09-30 08:05:21",52.243695,0.032418
1601453122,"2020-09-30 08:05:22",52.243623,0.03228
1601453123,"2020-09-30 08:05:23",52.243544,0.032156
1601453124,"2020-09-30 08:05:24",52.243472,0.032007
1601453125,"2020-09-30 08:05:25",52.243403,0.031872
1601453126,"2020-09-30 08:05:26",52.243327,0.031711
1601453127,"2020-09-30 08:05:27",52.243257,0.031563
1601453128,"2020-09-30 08:05:28",52.243177,0.031405
1601453129,"2020-09-30 08:05:29",52.243101,0.031249
1601453130,"2020-09-30 08:05:30",52.243018,0.031083
1601453131,"2020-09-30 08:05:31",52.242947,0.03093
1601453132,"2020-09-30 08:05:32",52.242877,0.030761
1601453133,"2020-09-30 08:05:33",52.242817,0.030612
1601453134,"2020-09-30 08:05:34",52.242752,0.030441
1601453135,"2020-09-30 08:05:35",52.242687,0.030264
1601453136,"2020-09-30 08:05:36",52.242624,0.030086
1601453137,"2020-09-30 08:05:37",52.242558,0.02991
1601453138,"2020-09-30 08:05:38",52.242492,0.029726
1601453139,"2020-09-30 08:05:39",52.24242,0.029541
1601453140,"2020-09-30 08:05:40",52.24235,0.029376
1601453141,"2020-09-30 08:05:41",52.242282,0.029185
1601453142,"2020-09-30 08:05:42",52.242209,0.029031
